[
  {
    "id": 1,
    "name": "Brianne",
    "latitude": 48.20475088853383,
    "longitude": 16.389381983732353,
    "pets": [
      {
        "id": 1,
        "ownerId": 1,
        "name": "Yolanda",
        "isMissing": true,
        "latitude": 48.232676058228506,
        "longitude": 16.38766738766422
      },
      {
        "id": 2,
        "ownerId": 1,
        "name": "Summer",
        "isMissing": true,
        "latitude": 48.23559004708146,
        "longitude": 16.356036029727466
      },
      {
        "id": 3,
        "ownerId": 1,
        "name": "Leonard",
        "isMissing": true,
        "latitude": 48.23743357863745,
        "longitude": 16.393601717596827
      },
      {
        "id": 4,
        "ownerId": 1,
        "name": "Joyce",
        "isMissing": false,
        "latitude": 48.23184582010026,
        "longitude": 16.357726680231924
      },
      {
        "id": 5,
        "ownerId": 1,
        "name": "Noah",
        "isMissing": true,
        "latitude": 48.20662426118171,
        "longitude": 16.358869077537612
      },
      {
        "id": 6,
        "ownerId": 1,
        "name": "Faith",
        "isMissing": true,
        "latitude": 48.23323958438141,
        "longitude": 16.39441602048816
      },
      {
        "id": 7,
        "ownerId": 1,
        "name": "Charlie",
        "isMissing": false,
        "latitude": 48.230944317909206,
        "longitude": 16.36272757108721
      },
      {
        "id": 8,
        "ownerId": 1,
        "name": "Melody",
        "isMissing": false,
        "latitude": 48.207322807480985,
        "longitude": 16.35562109450959
      },
      {
        "id": 9,
        "ownerId": 1,
        "name": "Janice",
        "isMissing": true,
        "latitude": 48.22988415664482,
        "longitude": 16.385880297179533
      }
    ]
  },
  {
    "id": 2,
    "name": "Eduardo",
    "latitude": 48.23787243769445,
    "longitude": 16.393731967570854,
    "pets": [
      {
        "id": 10,
        "ownerId": 2,
        "name": "Isabel",
        "isMissing": false,
        "latitude": 48.235033646927,
        "longitude": 16.39369774417647
      },
      {
        "id": 11,
        "ownerId": 2,
        "name": "Kristie",
        "isMissing": true,
        "latitude": 48.20106670910479,
        "longitude": 16.36184481560922
      },
      {
        "id": 12,
        "ownerId": 2,
        "name": "Trent",
        "isMissing": false,
        "latitude": 48.23038975984009,
        "longitude": 16.387444021168875
      },
      {
        "id": 13,
        "ownerId": 2,
        "name": "Kristie",
        "isMissing": false,
        "latitude": 48.20603230094521,
        "longitude": 16.387788390876086
      },
      {
        "id": 14,
        "ownerId": 2,
        "name": "Guadalupe",
        "isMissing": false,
        "latitude": 48.20526137520944,
        "longitude": 16.38730581017052
      },
      {
        "id": 15,
        "ownerId": 2,
        "name": "Stuart",
        "isMissing": true,
        "latitude": 48.20904474662948,
        "longitude": 16.361421262128637
      },
      {
        "id": 16,
        "ownerId": 2,
        "name": "Colby",
        "isMissing": true,
        "latitude": 48.20153750121366,
        "longitude": 16.362977661392843
      },
      {
        "id": 17,
        "ownerId": 2,
        "name": "Ericka",
        "isMissing": false,
        "latitude": 48.20519995958942,
        "longitude": 16.364033178748475
      }
    ]
  },
  {
    "id": 3,
    "name": "Kurt",
    "latitude": 48.23059965309846,
    "longitude": 16.36229709654424,
    "pets": [
      {
        "id": 18,
        "ownerId": 3,
        "name": "Sandy",
        "isMissing": true,
        "latitude": 48.2046711345928,
        "longitude": 16.35734087386654
      },
      {
        "id": 19,
        "ownerId": 3,
        "name": "Jocelyn",
        "isMissing": false,
        "latitude": 48.2302733694785,
        "longitude": 16.364419167137385
      },
      {
        "id": 20,
        "ownerId": 3,
        "name": "Diane",
        "isMissing": false,
        "latitude": 48.239026018546866,
        "longitude": 16.394031578496023
      },
      {
        "id": 21,
        "ownerId": 3,
        "name": "Steve",
        "isMissing": true,
        "latitude": 48.199957667482394,
        "longitude": 16.39304157151922
      },
      {
        "id": 22,
        "ownerId": 3,
        "name": "Dane",
        "isMissing": false,
        "latitude": 48.20735732411316,
        "longitude": 16.386622748831616
      },
      {
        "id": 23,
        "ownerId": 3,
        "name": "Tabatha",
        "isMissing": false,
        "latitude": 48.23018651688061,
        "longitude": 16.394270562766405
      },
      {
        "id": 24,
        "ownerId": 3,
        "name": "Kellie",
        "isMissing": false,
        "latitude": 48.205412330685505,
        "longitude": 16.36019400421659
      },
      {
        "id": 25,
        "ownerId": 3,
        "name": "Jamal",
        "isMissing": true,
        "latitude": 48.208618242862464,
        "longitude": 16.39519088110593
      }
    ]
  },
  {
    "id": 4,
    "name": "Nickolas",
    "latitude": 48.232066435636945,
    "longitude": 16.389110728352268,
    "pets": [
      {
        "id": 26,
        "ownerId": 4,
        "name": "Tracey",
        "isMissing": true,
        "latitude": 48.23796412851288,
        "longitude": 16.38936855146674
      },
      {
        "id": 27,
        "ownerId": 4,
        "name": "Keisha",
        "isMissing": false,
        "latitude": 48.23557697806024,
        "longitude": 16.35944332962771
      },
      {
        "id": 28,
        "ownerId": 4,
        "name": "Dorothy",
        "isMissing": true,
        "latitude": 48.233626446779894,
        "longitude": 16.39115341242627
      },
      {
        "id": 29,
        "ownerId": 4,
        "name": "Nicolas",
        "isMissing": true,
        "latitude": 48.235466112866526,
        "longitude": 16.389284628959867
      },
      {
        "id": 30,
        "ownerId": 4,
        "name": "Nina",
        "isMissing": false,
        "latitude": 48.2077161694704,
        "longitude": 16.387194895732744
      },
      {
        "id": 31,
        "ownerId": 4,
        "name": "Hope",
        "isMissing": true,
        "latitude": 48.20496596111681,
        "longitude": 16.357309521859484
      }
    ]
  },
  {
    "id": 5,
    "name": "Lesley",
    "latitude": 48.20744868623113,
    "longitude": 16.389332373283107,
    "pets": [
      {
        "id": 32,
        "ownerId": 5,
        "name": "Ariel",
        "isMissing": false,
        "latitude": 48.229712374547056,
        "longitude": 16.394565094187872
      },
      {
        "id": 33,
        "ownerId": 5,
        "name": "Carol",
        "isMissing": true,
        "latitude": 48.23380881577932,
        "longitude": 16.38761883654248
      },
      {
        "id": 34,
        "ownerId": 5,
        "name": "Nina",
        "isMissing": false,
        "latitude": 48.20186904932292,
        "longitude": 16.36230292906735
      },
      {
        "id": 35,
        "ownerId": 5,
        "name": "Hope",
        "isMissing": true,
        "latitude": 48.20769453114589,
        "longitude": 16.36372339691073
      },
      {
        "id": 36,
        "ownerId": 5,
        "name": "Tabatha",
        "isMissing": true,
        "latitude": 48.23374966809015,
        "longitude": 16.395096813607843
      },
      {
        "id": 37,
        "ownerId": 5,
        "name": "Joy",
        "isMissing": true,
        "latitude": 48.23457047524987,
        "longitude": 16.387541449524612
      },
      {
        "id": 38,
        "ownerId": 5,
        "name": "Roxanne",
        "isMissing": false,
        "latitude": 48.23312671399731,
        "longitude": 16.360700879070322
      }
    ]
  },
  {
    "id": 6,
    "name": "Rosa",
    "latitude": 48.20113464270073,
    "longitude": 16.36426140851952,
    "pets": [
      {
        "id": 39,
        "ownerId": 6,
        "name": "Clarence",
        "isMissing": true,
        "latitude": 48.229530156468364,
        "longitude": 16.358503502716307
      },
      {
        "id": 40,
        "ownerId": 6,
        "name": "Isabel",
        "isMissing": false,
        "latitude": 48.23782954105244,
        "longitude": 16.36383887585638
      },
      {
        "id": 41,
        "ownerId": 6,
        "name": "Alice",
        "isMissing": false,
        "latitude": 48.20460658455049,
        "longitude": 16.359995858637085
      },
      {
        "id": 42,
        "ownerId": 6,
        "name": "Elijah",
        "isMissing": true,
        "latitude": 48.23762001096204,
        "longitude": 16.394341251846246
      },
      {
        "id": 43,
        "ownerId": 6,
        "name": "Juliana",
        "isMissing": false,
        "latitude": 48.20091860106158,
        "longitude": 16.364772620384176
      },
      {
        "id": 44,
        "ownerId": 6,
        "name": "Kathy",
        "isMissing": false,
        "latitude": 48.20575026706051,
        "longitude": 16.359784339496574
      }
    ]
  },
  {
    "id": 7,
    "name": "Miriam",
    "latitude": 48.20708909242139,
    "longitude": 16.38605208041442,
    "pets": [
      {
        "id": 45,
        "ownerId": 7,
        "name": "Bryant",
        "isMissing": false,
        "latitude": 48.23542101208535,
        "longitude": 16.39342659407636
      },
      {
        "id": 46,
        "ownerId": 7,
        "name": "Alana",
        "isMissing": true,
        "latitude": 48.20500848188264,
        "longitude": 16.393162702207228
      },
      {
        "id": 47,
        "ownerId": 7,
        "name": "Antoine",
        "isMissing": false,
        "latitude": 48.201241586440545,
        "longitude": 16.362642930075378
      }
    ]
  },
  {
    "id": 8,
    "name": "Angelina",
    "latitude": 48.20449347959296,
    "longitude": 16.391208773098732,
    "pets": [
      {
        "id": 48,
        "ownerId": 8,
        "name": "Brenton",
        "isMissing": false,
        "latitude": 48.20862364995174,
        "longitude": 16.391105400746124
      },
      {
        "id": 49,
        "ownerId": 8,
        "name": "Ashlie",
        "isMissing": true,
        "latitude": 48.20084879285866,
        "longitude": 16.38587581507448
      },
      {
        "id": 50,
        "ownerId": 8,
        "name": "Breanna",
        "isMissing": false,
        "latitude": 48.236914082546164,
        "longitude": 16.358215703362454
      },
      {
        "id": 51,
        "ownerId": 8,
        "name": "Karina",
        "isMissing": true,
        "latitude": 48.23116066068251,
        "longitude": 16.392097960434565
      }
    ]
  },
  {
    "id": 9,
    "name": "Maureen",
    "latitude": 48.208843464459214,
    "longitude": 16.39267266808003,
    "pets": [
      {
        "id": 52,
        "ownerId": 9,
        "name": "Marshall",
        "isMissing": true,
        "latitude": 48.20793297986362,
        "longitude": 16.39465689225481
      },
      {
        "id": 53,
        "ownerId": 9,
        "name": "Angelina",
        "isMissing": false,
        "latitude": 48.23876654478926,
        "longitude": 16.390746208578214
      },
      {
        "id": 54,
        "ownerId": 9,
        "name": "Trent",
        "isMissing": false,
        "latitude": 48.20456155939687,
        "longitude": 16.360218308946155
      }
    ]
  },
  {
    "id": 10,
    "name": "Jarrod",
    "latitude": 48.23751926382855,
    "longitude": 16.39442757055782,
    "pets": [
      {
        "id": 55,
        "ownerId": 10,
        "name": "Barry",
        "isMissing": true,
        "latitude": 48.20523988278872,
        "longitude": 16.36458764667121
      },
      {
        "id": 56,
        "ownerId": 10,
        "name": "Glenn",
        "isMissing": true,
        "latitude": 48.235209753407155,
        "longitude": 16.386914856616674
      },
      {
        "id": 57,
        "ownerId": 10,
        "name": "Meaghan",
        "isMissing": false,
        "latitude": 48.20101478813202,
        "longitude": 16.387276613669698
      },
      {
        "id": 58,
        "ownerId": 10,
        "name": "Dean",
        "isMissing": false,
        "latitude": 48.23038403339388,
        "longitude": 16.391219390109644
      }
    ]
  },
  {
    "id": 11,
    "name": "Terrell",
    "latitude": 48.2305186885793,
    "longitude": 16.357893366082948,
    "pets": [
      {
        "id": 59,
        "ownerId": 11,
        "name": "Rita",
        "isMissing": false,
        "latitude": 48.237707214129756,
        "longitude": 16.38801665676379
      },
      {
        "id": 60,
        "ownerId": 11,
        "name": "Gilbert",
        "isMissing": true,
        "latitude": 48.237769113760976,
        "longitude": 16.363500065316973
      },
      {
        "id": 61,
        "ownerId": 11,
        "name": "Suzanne",
        "isMissing": true,
        "latitude": 48.23769215538405,
        "longitude": 16.360946271528444
      }
    ]
  },
  {
    "id": 12,
    "name": "Theodore",
    "latitude": 48.199682272744745,
    "longitude": 16.38797003655567,
    "pets": [
      {
        "id": 62,
        "ownerId": 12,
        "name": "Darnell",
        "isMissing": true,
        "latitude": 48.230510063042516,
        "longitude": 16.360859987841007
      },
      {
        "id": 63,
        "ownerId": 12,
        "name": "Angelo",
        "isMissing": false,
        "latitude": 48.23551413173325,
        "longitude": 16.362320992522257
      },
      {
        "id": 64,
        "ownerId": 12,
        "name": "Hunter",
        "isMissing": true,
        "latitude": 48.23783078541621,
        "longitude": 16.391891124076817
      },
      {
        "id": 65,
        "ownerId": 12,
        "name": "Chance",
        "isMissing": true,
        "latitude": 48.20091869249655,
        "longitude": 16.359546324654552
      },
      {
        "id": 66,
        "ownerId": 12,
        "name": "Ericka",
        "isMissing": true,
        "latitude": 48.2371734848499,
        "longitude": 16.392757120464513
      }
    ]
  },
  {
    "id": 13,
    "name": "Leon",
    "latitude": 48.23375944599969,
    "longitude": 16.38862537267498,
    "pets": [
      {
        "id": 67,
        "ownerId": 13,
        "name": "Terence",
        "isMissing": true,
        "latitude": 48.20412147490186,
        "longitude": 16.359363363081457
      },
      {
        "id": 68,
        "ownerId": 13,
        "name": "Sylvia",
        "isMissing": true,
        "latitude": 48.204668974237805,
        "longitude": 16.393309261856988
      },
      {
        "id": 69,
        "ownerId": 13,
        "name": "Mayra",
        "isMissing": true,
        "latitude": 48.23523719497816,
        "longitude": 16.38914091858625
      },
      {
        "id": 70,
        "ownerId": 13,
        "name": "Yvonne",
        "isMissing": true,
        "latitude": 48.23318903348142,
        "longitude": 16.388639008611324
      },
      {
        "id": 71,
        "ownerId": 13,
        "name": "Jasmin",
        "isMissing": true,
        "latitude": 48.22957565898177,
        "longitude": 16.39107173630824
      },
      {
        "id": 72,
        "ownerId": 13,
        "name": "Katharine",
        "isMissing": true,
        "latitude": 48.23378928642807,
        "longitude": 16.390381394574696
      },
      {
        "id": 73,
        "ownerId": 13,
        "name": "Karina",
        "isMissing": true,
        "latitude": 48.204795740633706,
        "longitude": 16.388602555579755
      },
      {
        "id": 74,
        "ownerId": 13,
        "name": "Antoine",
        "isMissing": false,
        "latitude": 48.20928101505216,
        "longitude": 16.389017860835477
      }
    ]
  },
  {
    "id": 14,
    "name": "Dwayne",
    "latitude": 48.20484032664755,
    "longitude": 16.35885411591041,
    "pets": [
      {
        "id": 75,
        "ownerId": 14,
        "name": "Melvin",
        "isMissing": true,
        "latitude": 48.234074706657765,
        "longitude": 16.35806191646131
      },
      {
        "id": 76,
        "ownerId": 14,
        "name": "Stanley",
        "isMissing": false,
        "latitude": 48.23087831295005,
        "longitude": 16.35587599279583
      },
      {
        "id": 77,
        "ownerId": 14,
        "name": "Hunter",
        "isMissing": true,
        "latitude": 48.23248648074194,
        "longitude": 16.361496486428607
      },
      {
        "id": 78,
        "ownerId": 14,
        "name": "Kasey",
        "isMissing": true,
        "latitude": 48.23203227962117,
        "longitude": 16.364557890460244
      },
      {
        "id": 79,
        "ownerId": 14,
        "name": "Ramon",
        "isMissing": false,
        "latitude": 48.2070030390223,
        "longitude": 16.388878714178635
      },
      {
        "id": 80,
        "ownerId": 14,
        "name": "Francis",
        "isMissing": true,
        "latitude": 48.22987900440383,
        "longitude": 16.358295130077806
      },
      {
        "id": 81,
        "ownerId": 14,
        "name": "Shelly",
        "isMissing": true,
        "latitude": 48.234147754792495,
        "longitude": 16.36193029774905
      },
      {
        "id": 82,
        "ownerId": 14,
        "name": "Heath",
        "isMissing": true,
        "latitude": 48.232972177906056,
        "longitude": 16.386344891328267
      }
    ]
  },
  {
    "id": 15,
    "name": "Shauna",
    "latitude": 48.2070442239344,
    "longitude": 16.391697487053573,
    "pets": [
      {
        "id": 83,
        "ownerId": 15,
        "name": "Jodi",
        "isMissing": false,
        "latitude": 48.229635950708015,
        "longitude": 16.393841860089257
      },
      {
        "id": 84,
        "ownerId": 15,
        "name": "Allan",
        "isMissing": true,
        "latitude": 48.22955226418755,
        "longitude": 16.390759564174434
      },
      {
        "id": 85,
        "ownerId": 15,
        "name": "Melody",
        "isMissing": false,
        "latitude": 48.23438286594567,
        "longitude": 16.363918725895893
      },
      {
        "id": 86,
        "ownerId": 15,
        "name": "Arturo",
        "isMissing": true,
        "latitude": 48.23285892004062,
        "longitude": 16.39260175303596
      },
      {
        "id": 87,
        "ownerId": 15,
        "name": "Christa",
        "isMissing": true,
        "latitude": 48.20530480407936,
        "longitude": 16.362471330400272
      },
      {
        "id": 88,
        "ownerId": 15,
        "name": "Ciara",
        "isMissing": true,
        "latitude": 48.237237137116566,
        "longitude": 16.38847183058186
      }
    ]
  },
  {
    "id": 16,
    "name": "Paige",
    "latitude": 48.204793809845775,
    "longitude": 16.363186198002403,
    "pets": [
      {
        "id": 89,
        "ownerId": 16,
        "name": "Kerri",
        "isMissing": true,
        "latitude": 48.23624759109518,
        "longitude": 16.392130179927825
      },
      {
        "id": 90,
        "ownerId": 16,
        "name": "Faith",
        "isMissing": false,
        "latitude": 48.200287320047536,
        "longitude": 16.39497000135164
      },
      {
        "id": 91,
        "ownerId": 16,
        "name": "Eddie",
        "isMissing": true,
        "latitude": 48.209335706626895,
        "longitude": 16.35548262189441
      },
      {
        "id": 92,
        "ownerId": 16,
        "name": "Ruth",
        "isMissing": true,
        "latitude": 48.20551210259306,
        "longitude": 16.390530806942877
      }
    ]
  },
  {
    "id": 17,
    "name": "Suzanne",
    "latitude": 48.23385451709734,
    "longitude": 16.359119560710575,
    "pets": [
      {
        "id": 93,
        "ownerId": 17,
        "name": "Elise",
        "isMissing": true,
        "latitude": 48.20191117788827,
        "longitude": 16.386040659228858
      },
      {
        "id": 94,
        "ownerId": 17,
        "name": "Clifford",
        "isMissing": true,
        "latitude": 48.23720024106879,
        "longitude": 16.356703954082697
      },
      {
        "id": 95,
        "ownerId": 17,
        "name": "Charlie",
        "isMissing": false,
        "latitude": 48.23099108925548,
        "longitude": 16.392438496109403
      }
    ]
  },
  {
    "id": 18,
    "name": "Theodore",
    "latitude": 48.20328309266955,
    "longitude": 16.392095638568403,
    "pets": [
      {
        "id": 96,
        "ownerId": 18,
        "name": "Jodi",
        "isMissing": true,
        "latitude": 48.20257560844434,
        "longitude": 16.360609790948757
      },
      {
        "id": 97,
        "ownerId": 18,
        "name": "Joyce",
        "isMissing": false,
        "latitude": 48.233524098878725,
        "longitude": 16.392093724604177
      },
      {
        "id": 98,
        "ownerId": 18,
        "name": "Leroy",
        "isMissing": false,
        "latitude": 48.230490117245814,
        "longitude": 16.38964053579218
      }
    ]
  },
  {
    "id": 19,
    "name": "Kirk",
    "latitude": 48.236354052381046,
    "longitude": 16.3865969086774,
    "pets": [
      {
        "id": 99,
        "ownerId": 19,
        "name": "Barry",
        "isMissing": false,
        "latitude": 48.23267755135604,
        "longitude": 16.391680344341534
      },
      {
        "id": 100,
        "ownerId": 19,
        "name": "Hunter",
        "isMissing": true,
        "latitude": 48.20610159302852,
        "longitude": 16.356806460162204
      },
      {
        "id": 101,
        "ownerId": 19,
        "name": "Terrance",
        "isMissing": false,
        "latitude": 48.23104132798038,
        "longitude": 16.388456244537224
      },
      {
        "id": 102,
        "ownerId": 19,
        "name": "Sonya",
        "isMissing": true,
        "latitude": 48.202029518467384,
        "longitude": 16.39028856792992
      },
      {
        "id": 103,
        "ownerId": 19,
        "name": "Jermaine",
        "isMissing": false,
        "latitude": 48.23202207372003,
        "longitude": 16.39041121732523
      },
      {
        "id": 104,
        "ownerId": 19,
        "name": "Frederick",
        "isMissing": false,
        "latitude": 48.200803223580046,
        "longitude": 16.355505045355702
      },
      {
        "id": 105,
        "ownerId": 19,
        "name": "Nadia",
        "isMissing": false,
        "latitude": 48.206933023486016,
        "longitude": 16.361260714928985
      },
      {
        "id": 106,
        "ownerId": 19,
        "name": "Jena",
        "isMissing": true,
        "latitude": 48.20422389379277,
        "longitude": 16.360300464645416
      },
      {
        "id": 107,
        "ownerId": 19,
        "name": "Cesar",
        "isMissing": true,
        "latitude": 48.234526843831524,
        "longitude": 16.362344222568172
      }
    ]
  },
  {
    "id": 20,
    "name": "Collin",
    "latitude": 48.23475611826825,
    "longitude": 16.393171807174735,
    "pets": [
      {
        "id": 108,
        "ownerId": 20,
        "name": "Lydia",
        "isMissing": true,
        "latitude": 48.208373961251745,
        "longitude": 16.391509614909335
      },
      {
        "id": 109,
        "ownerId": 20,
        "name": "Marisa",
        "isMissing": false,
        "latitude": 48.23125954040177,
        "longitude": 16.358784447943627
      },
      {
        "id": 110,
        "ownerId": 20,
        "name": "Faith",
        "isMissing": false,
        "latitude": 48.23734220163305,
        "longitude": 16.387383073240965
      },
      {
        "id": 111,
        "ownerId": 20,
        "name": "Wade",
        "isMissing": false,
        "latitude": 48.20180600828137,
        "longitude": 16.35645588364699
      }
    ]
  },
  {
    "id": 21,
    "name": "Camille",
    "latitude": 48.23264471148887,
    "longitude": 16.355707553705013,
    "pets": [
      {
        "id": 112,
        "ownerId": 21,
        "name": "Faith",
        "isMissing": false,
        "latitude": 48.200717179254966,
        "longitude": 16.364109169425628
      },
      {
        "id": 113,
        "ownerId": 21,
        "name": "Robyn",
        "isMissing": false,
        "latitude": 48.23037895585164,
        "longitude": 16.39137052226927
      },
      {
        "id": 114,
        "ownerId": 21,
        "name": "Jayme",
        "isMissing": true,
        "latitude": 48.204587482355684,
        "longitude": 16.35740372677211
      },
      {
        "id": 115,
        "ownerId": 21,
        "name": "Karl",
        "isMissing": true,
        "latitude": 48.201443237912585,
        "longitude": 16.355812173520157
      },
      {
        "id": 116,
        "ownerId": 21,
        "name": "Patrice",
        "isMissing": false,
        "latitude": 48.23334770951754,
        "longitude": 16.360833898856274
      }
    ]
  },
  {
    "id": 22,
    "name": "Stuart",
    "latitude": 48.20224801782253,
    "longitude": 16.356129150902024,
    "pets": [
      {
        "id": 117,
        "ownerId": 22,
        "name": "Laurel",
        "isMissing": false,
        "latitude": 48.20258607620654,
        "longitude": 16.355354711088186
      },
      {
        "id": 118,
        "ownerId": 22,
        "name": "Andres",
        "isMissing": true,
        "latitude": 48.2074420770318,
        "longitude": 16.392363298168746
      },
      {
        "id": 119,
        "ownerId": 22,
        "name": "Kira",
        "isMissing": true,
        "latitude": 48.2336072326867,
        "longitude": 16.394510273667937
      },
      {
        "id": 120,
        "ownerId": 22,
        "name": "India",
        "isMissing": true,
        "latitude": 48.201275283298834,
        "longitude": 16.36266825057728
      },
      {
        "id": 121,
        "ownerId": 22,
        "name": "Jerome",
        "isMissing": false,
        "latitude": 48.2003687341159,
        "longitude": 16.386849254342
      }
    ]
  },
  {
    "id": 23,
    "name": "Alfredo",
    "latitude": 48.20705491261076,
    "longitude": 16.358477390070917,
    "pets": [
      {
        "id": 122,
        "ownerId": 23,
        "name": "Quinton",
        "isMissing": true,
        "latitude": 48.23343434330579,
        "longitude": 16.363773891193812
      },
      {
        "id": 123,
        "ownerId": 23,
        "name": "Angelo",
        "isMissing": false,
        "latitude": 48.206860070245256,
        "longitude": 16.363314229482963
      },
      {
        "id": 124,
        "ownerId": 23,
        "name": "Sasha",
        "isMissing": false,
        "latitude": 48.23029849079577,
        "longitude": 16.38980435109843
      },
      {
        "id": 125,
        "ownerId": 23,
        "name": "Lesley",
        "isMissing": true,
        "latitude": 48.23770503072641,
        "longitude": 16.356878869408334
      },
      {
        "id": 126,
        "ownerId": 23,
        "name": "Jenifer",
        "isMissing": true,
        "latitude": 48.202812636009504,
        "longitude": 16.364454885972275
      },
      {
        "id": 127,
        "ownerId": 23,
        "name": "Micah",
        "isMissing": true,
        "latitude": 48.207967467548876,
        "longitude": 16.356491410586433
      },
      {
        "id": 128,
        "ownerId": 23,
        "name": "Emma",
        "isMissing": true,
        "latitude": 48.200086368266106,
        "longitude": 16.356043899593256
      },
      {
        "id": 129,
        "ownerId": 23,
        "name": "Keisha",
        "isMissing": true,
        "latitude": 48.2044414437968,
        "longitude": 16.394525123273418
      }
    ]
  },
  {
    "id": 24,
    "name": "Shelley",
    "latitude": 48.23695587351597,
    "longitude": 16.364718021368873,
    "pets": [
      {
        "id": 130,
        "ownerId": 24,
        "name": "Isabel",
        "isMissing": true,
        "latitude": 48.23592299535178,
        "longitude": 16.36170875433292
      },
      {
        "id": 131,
        "ownerId": 24,
        "name": "Eugene",
        "isMissing": true,
        "latitude": 48.20689809457013,
        "longitude": 16.388130879847054
      },
      {
        "id": 132,
        "ownerId": 24,
        "name": "Aubrey",
        "isMissing": true,
        "latitude": 48.23180932278688,
        "longitude": 16.386630873478516
      },
      {
        "id": 133,
        "ownerId": 24,
        "name": "Lacy",
        "isMissing": false,
        "latitude": 48.23530282637289,
        "longitude": 16.390797832499914
      },
      {
        "id": 134,
        "ownerId": 24,
        "name": "Alana",
        "isMissing": false,
        "latitude": 48.206045557843204,
        "longitude": 16.361216031580735
      }
    ]
  },
  {
    "id": 25,
    "name": "Julio",
    "latitude": 48.208645710276755,
    "longitude": 16.36243215678323,
    "pets": [
      {
        "id": 135,
        "ownerId": 25,
        "name": "Rita",
        "isMissing": true,
        "latitude": 48.237110808796665,
        "longitude": 16.390336623018914
      },
      {
        "id": 136,
        "ownerId": 25,
        "name": "Noah",
        "isMissing": true,
        "latitude": 48.20146486122311,
        "longitude": 16.359474654115736
      },
      {
        "id": 137,
        "ownerId": 25,
        "name": "Shayla",
        "isMissing": false,
        "latitude": 48.23937732838381,
        "longitude": 16.36111801911729
      },
      {
        "id": 138,
        "ownerId": 25,
        "name": "Raquel",
        "isMissing": false,
        "latitude": 48.204489208985805,
        "longitude": 16.356597342520274
      },
      {
        "id": 139,
        "ownerId": 25,
        "name": "Hayley",
        "isMissing": false,
        "latitude": 48.236981545151245,
        "longitude": 16.392370490130745
      },
      {
        "id": 140,
        "ownerId": 25,
        "name": "Lorena",
        "isMissing": false,
        "latitude": 48.23854259747954,
        "longitude": 16.38590669482848
      },
      {
        "id": 141,
        "ownerId": 25,
        "name": "Jayson",
        "isMissing": false,
        "latitude": 48.236555119660984,
        "longitude": 16.390662875190003
      },
      {
        "id": 142,
        "ownerId": 25,
        "name": "Steve",
        "isMissing": false,
        "latitude": 48.23496718521466,
        "longitude": 16.356700580371072
      }
    ]
  },
  {
    "id": 26,
    "name": "Julianne",
    "latitude": 48.23156987978569,
    "longitude": 16.35935135894422,
    "pets": [
      {
        "id": 143,
        "ownerId": 26,
        "name": "Ronnie",
        "isMissing": false,
        "latitude": 48.23692500755269,
        "longitude": 16.355494278949365
      },
      {
        "id": 144,
        "ownerId": 26,
        "name": "Adriana",
        "isMissing": true,
        "latitude": 48.23777709502995,
        "longitude": 16.391837999207645
      },
      {
        "id": 145,
        "ownerId": 26,
        "name": "Leigh",
        "isMissing": false,
        "latitude": 48.235315568580674,
        "longitude": 16.392305135819413
      },
      {
        "id": 146,
        "ownerId": 26,
        "name": "Shelley",
        "isMissing": true,
        "latitude": 48.20665189233019,
        "longitude": 16.35667258045609
      },
      {
        "id": 147,
        "ownerId": 26,
        "name": "Lamar",
        "isMissing": false,
        "latitude": 48.235415857668116,
        "longitude": 16.386272822027276
      },
      {
        "id": 148,
        "ownerId": 26,
        "name": "Destiny",
        "isMissing": false,
        "latitude": 48.207482069686456,
        "longitude": 16.35999450027191
      }
    ]
  },
  {
    "id": 27,
    "name": "Callie",
    "latitude": 48.20910218980858,
    "longitude": 16.360281704310097,
    "pets": [
      {
        "id": 149,
        "ownerId": 27,
        "name": "Dallas",
        "isMissing": false,
        "latitude": 48.23245754602797,
        "longitude": 16.394760435712147
      },
      {
        "id": 150,
        "ownerId": 27,
        "name": "Max",
        "isMissing": true,
        "latitude": 48.23591192407104,
        "longitude": 16.39335051434562
      },
      {
        "id": 151,
        "ownerId": 27,
        "name": "Alberto",
        "isMissing": true,
        "latitude": 48.23125001488147,
        "longitude": 16.35768262326745
      }
    ]
  },
  {
    "id": 28,
    "name": "Trisha",
    "latitude": 48.234624739044,
    "longitude": 16.36176958160173,
    "pets": [
      {
        "id": 152,
        "ownerId": 28,
        "name": "Sally",
        "isMissing": true,
        "latitude": 48.209344913754755,
        "longitude": 16.357611980791575
      },
      {
        "id": 153,
        "ownerId": 28,
        "name": "Lynn",
        "isMissing": false,
        "latitude": 48.235611269801026,
        "longitude": 16.362269170386437
      },
      {
        "id": 154,
        "ownerId": 28,
        "name": "Keri",
        "isMissing": false,
        "latitude": 48.23056826874607,
        "longitude": 16.38601680541559
      },
      {
        "id": 155,
        "ownerId": 28,
        "name": "Joey",
        "isMissing": true,
        "latitude": 48.20281194597826,
        "longitude": 16.3944654566733
      },
      {
        "id": 156,
        "ownerId": 28,
        "name": "Arturo",
        "isMissing": true,
        "latitude": 48.19977485946273,
        "longitude": 16.360799414322443
      }
    ]
  },
  {
    "id": 29,
    "name": "Charlotte",
    "latitude": 48.238549127350865,
    "longitude": 16.39423784458651,
    "pets": [
      {
        "id": 157,
        "ownerId": 29,
        "name": "Eduardo",
        "isMissing": false,
        "latitude": 48.20507224780155,
        "longitude": 16.38849581429426
      },
      {
        "id": 158,
        "ownerId": 29,
        "name": "Raul",
        "isMissing": true,
        "latitude": 48.207137676082155,
        "longitude": 16.390512440968553
      },
      {
        "id": 159,
        "ownerId": 29,
        "name": "Charlie",
        "isMissing": false,
        "latitude": 48.205150720643374,
        "longitude": 16.360598035505934
      },
      {
        "id": 160,
        "ownerId": 29,
        "name": "Cheryl",
        "isMissing": true,
        "latitude": 48.199915131998445,
        "longitude": 16.35526166518855
      },
      {
        "id": 161,
        "ownerId": 29,
        "name": "Isabel",
        "isMissing": true,
        "latitude": 48.20711188847744,
        "longitude": 16.39232958041411
      },
      {
        "id": 162,
        "ownerId": 29,
        "name": "Guadalupe",
        "isMissing": true,
        "latitude": 48.20859562298833,
        "longitude": 16.36177765680207
      }
    ]
  },
  {
    "id": 30,
    "name": "Keisha",
    "latitude": 48.237453555422604,
    "longitude": 16.356896667975146,
    "pets": [
      {
        "id": 163,
        "ownerId": 30,
        "name": "Carol",
        "isMissing": true,
        "latitude": 48.20212521941082,
        "longitude": 16.391840713434778
      },
      {
        "id": 164,
        "ownerId": 30,
        "name": "Judith",
        "isMissing": true,
        "latitude": 48.23492491925907,
        "longitude": 16.35655657189469
      },
      {
        "id": 165,
        "ownerId": 30,
        "name": "Staci",
        "isMissing": true,
        "latitude": 48.207412565552154,
        "longitude": 16.39365013046125
      },
      {
        "id": 166,
        "ownerId": 30,
        "name": "Tanner",
        "isMissing": false,
        "latitude": 48.20418351171583,
        "longitude": 16.36514700602051
      },
      {
        "id": 167,
        "ownerId": 30,
        "name": "Olivia",
        "isMissing": false,
        "latitude": 48.23797656297285,
        "longitude": 16.386502855158707
      },
      {
        "id": 168,
        "ownerId": 30,
        "name": "Yvonne",
        "isMissing": true,
        "latitude": 48.229867968683045,
        "longitude": 16.38699401016497
      },
      {
        "id": 169,
        "ownerId": 30,
        "name": "Shelby",
        "isMissing": true,
        "latitude": 48.206289722187655,
        "longitude": 16.38634372299599
      },
      {
        "id": 170,
        "ownerId": 30,
        "name": "Quinton",
        "isMissing": true,
        "latitude": 48.2358452208634,
        "longitude": 16.38732875277543
      },
      {
        "id": 171,
        "ownerId": 30,
        "name": "Andy",
        "isMissing": true,
        "latitude": 48.237439623530506,
        "longitude": 16.38558446629929
      }
    ]
  },
  {
    "id": 31,
    "name": "Trenton",
    "latitude": 48.23077874564918,
    "longitude": 16.356571045952673,
    "pets": [
      {
        "id": 172,
        "ownerId": 31,
        "name": "Cole",
        "isMissing": true,
        "latitude": 48.234637593881885,
        "longitude": 16.389325610079155
      },
      {
        "id": 173,
        "ownerId": 31,
        "name": "Bernard",
        "isMissing": true,
        "latitude": 48.232156907518466,
        "longitude": 16.356251647039198
      },
      {
        "id": 174,
        "ownerId": 31,
        "name": "Staci",
        "isMissing": false,
        "latitude": 48.20582491697465,
        "longitude": 16.387890012436344
      }
    ]
  },
  {
    "id": 32,
    "name": "Kristie",
    "latitude": 48.207206515165886,
    "longitude": 16.35763365821485,
    "pets": [
      {
        "id": 175,
        "ownerId": 32,
        "name": "Keisha",
        "isMissing": true,
        "latitude": 48.20593995400668,
        "longitude": 16.391175863541825
      },
      {
        "id": 176,
        "ownerId": 32,
        "name": "Hayley",
        "isMissing": true,
        "latitude": 48.20161166885678,
        "longitude": 16.39183016433549
      },
      {
        "id": 177,
        "ownerId": 32,
        "name": "Lillian",
        "isMissing": true,
        "latitude": 48.203373511018434,
        "longitude": 16.357619306098474
      }
    ]
  },
  {
    "id": 33,
    "name": "Terrell",
    "latitude": 48.201254981833415,
    "longitude": 16.362494333761656,
    "pets": [
      {
        "id": 178,
        "ownerId": 33,
        "name": "Elijah",
        "isMissing": true,
        "latitude": 48.237019967713806,
        "longitude": 16.39479803090174
      },
      {
        "id": 179,
        "ownerId": 33,
        "name": "Ramon",
        "isMissing": true,
        "latitude": 48.23299762624813,
        "longitude": 16.35753550400185
      },
      {
        "id": 180,
        "ownerId": 33,
        "name": "Jena",
        "isMissing": true,
        "latitude": 48.208974018770526,
        "longitude": 16.35534322259324
      },
      {
        "id": 181,
        "ownerId": 33,
        "name": "Sonia",
        "isMissing": true,
        "latitude": 48.237908533904864,
        "longitude": 16.358416740995455
      },
      {
        "id": 182,
        "ownerId": 33,
        "name": "Aubrey",
        "isMissing": false,
        "latitude": 48.20365766494116,
        "longitude": 16.35578218140087
      }
    ]
  },
  {
    "id": 34,
    "name": "Melvin",
    "latitude": 48.235037927375764,
    "longitude": 16.362691149816317,
    "pets": [
      {
        "id": 183,
        "ownerId": 34,
        "name": "Ramon",
        "isMissing": true,
        "latitude": 48.23422174486052,
        "longitude": 16.359677370136982
      },
      {
        "id": 184,
        "ownerId": 34,
        "name": "Harold",
        "isMissing": false,
        "latitude": 48.20638504827247,
        "longitude": 16.38845539837021
      },
      {
        "id": 185,
        "ownerId": 34,
        "name": "Frederick",
        "isMissing": true,
        "latitude": 48.238317197922086,
        "longitude": 16.38806465067829
      },
      {
        "id": 186,
        "ownerId": 34,
        "name": "Dale",
        "isMissing": false,
        "latitude": 48.20790337014428,
        "longitude": 16.38854905028839
      }
    ]
  },
  {
    "id": 35,
    "name": "Shelby",
    "latitude": 48.23865512208512,
    "longitude": 16.38842132353292,
    "pets": [
      {
        "id": 187,
        "ownerId": 35,
        "name": "Vernon",
        "isMissing": true,
        "latitude": 48.20365823757462,
        "longitude": 16.390306546175946
      },
      {
        "id": 188,
        "ownerId": 35,
        "name": "Kirk",
        "isMissing": true,
        "latitude": 48.2379587763586,
        "longitude": 16.39515463193632
      },
      {
        "id": 189,
        "ownerId": 35,
        "name": "Trent",
        "isMissing": true,
        "latitude": 48.20455487456868,
        "longitude": 16.39043184542371
      },
      {
        "id": 190,
        "ownerId": 35,
        "name": "Gabrielle",
        "isMissing": true,
        "latitude": 48.2384178036448,
        "longitude": 16.39011961875718
      },
      {
        "id": 191,
        "ownerId": 35,
        "name": "Chris",
        "isMissing": false,
        "latitude": 48.23130332776074,
        "longitude": 16.38765231722916
      },
      {
        "id": 192,
        "ownerId": 35,
        "name": "Kelvin",
        "isMissing": false,
        "latitude": 48.204678317730924,
        "longitude": 16.393144035475736
      },
      {
        "id": 193,
        "ownerId": 35,
        "name": "Tia",
        "isMissing": false,
        "latitude": 48.238983915323345,
        "longitude": 16.359714783870103
      },
      {
        "id": 194,
        "ownerId": 35,
        "name": "Judith",
        "isMissing": false,
        "latitude": 48.2319581852285,
        "longitude": 16.36251831792383
      },
      {
        "id": 195,
        "ownerId": 35,
        "name": "Brittani",
        "isMissing": false,
        "latitude": 48.201384895452456,
        "longitude": 16.390138525991194
      }
    ]
  },
  {
    "id": 36,
    "name": "Heath",
    "latitude": 48.20898431939275,
    "longitude": 16.387011545485898,
    "pets": [
      {
        "id": 196,
        "ownerId": 36,
        "name": "Leonard",
        "isMissing": false,
        "latitude": 48.20934740783825,
        "longitude": 16.394922505573955
      },
      {
        "id": 197,
        "ownerId": 36,
        "name": "Barry",
        "isMissing": false,
        "latitude": 48.200691760906494,
        "longitude": 16.3897553201693
      },
      {
        "id": 198,
        "ownerId": 36,
        "name": "Kellie",
        "isMissing": true,
        "latitude": 48.23186572572381,
        "longitude": 16.389398876152864
      },
      {
        "id": 199,
        "ownerId": 36,
        "name": "Julianne",
        "isMissing": false,
        "latitude": 48.23069279920536,
        "longitude": 16.36259699778603
      }
    ]
  },
  {
    "id": 37,
    "name": "Elijah",
    "latitude": 48.20528271134168,
    "longitude": 16.36443190623694,
    "pets": [
      {
        "id": 200,
        "ownerId": 37,
        "name": "Trent",
        "isMissing": true,
        "latitude": 48.199920334153894,
        "longitude": 16.390621734455
      },
      {
        "id": 201,
        "ownerId": 37,
        "name": "Yesenia",
        "isMissing": false,
        "latitude": 48.201789918067675,
        "longitude": 16.356304560599433
      },
      {
        "id": 202,
        "ownerId": 37,
        "name": "Emma",
        "isMissing": false,
        "latitude": 48.234022755509876,
        "longitude": 16.386113048125367
      },
      {
        "id": 203,
        "ownerId": 37,
        "name": "Desmond",
        "isMissing": true,
        "latitude": 48.20853877017744,
        "longitude": 16.364775639997042
      }
    ]
  },
  {
    "id": 38,
    "name": "Collin",
    "latitude": 48.235213516009814,
    "longitude": 16.355568765505613,
    "pets": [
      {
        "id": 204,
        "ownerId": 38,
        "name": "Kristie",
        "isMissing": true,
        "latitude": 48.207401860727515,
        "longitude": 16.392992014079823
      },
      {
        "id": 205,
        "ownerId": 38,
        "name": "Levi",
        "isMissing": false,
        "latitude": 48.207603149100414,
        "longitude": 16.39412112716383
      },
      {
        "id": 206,
        "ownerId": 38,
        "name": "Elise",
        "isMissing": true,
        "latitude": 48.2049102988492,
        "longitude": 16.394803954965887
      },
      {
        "id": 207,
        "ownerId": 38,
        "name": "Marquita",
        "isMissing": true,
        "latitude": 48.20492745535673,
        "longitude": 16.387621627335655
      }
    ]
  },
  {
    "id": 39,
    "name": "Serena",
    "latitude": 48.20816915607574,
    "longitude": 16.394357618194505,
    "pets": [
      {
        "id": 208,
        "ownerId": 39,
        "name": "Chance",
        "isMissing": false,
        "latitude": 48.19980559898398,
        "longitude": 16.356847961668546
      },
      {
        "id": 209,
        "ownerId": 39,
        "name": "Elise",
        "isMissing": true,
        "latitude": 48.20864794189562,
        "longitude": 16.36034034752753
      },
      {
        "id": 210,
        "ownerId": 39,
        "name": "Joy",
        "isMissing": true,
        "latitude": 48.207077544184656,
        "longitude": 16.391879767982296
      },
      {
        "id": 211,
        "ownerId": 39,
        "name": "Ray",
        "isMissing": false,
        "latitude": 48.23446652142244,
        "longitude": 16.363138166698967
      },
      {
        "id": 212,
        "ownerId": 39,
        "name": "Raul",
        "isMissing": false,
        "latitude": 48.20270992999075,
        "longitude": 16.359744921418017
      }
    ]
  },
  {
    "id": 40,
    "name": "Marquita",
    "latitude": 48.238580152352235,
    "longitude": 16.393890669881706,
    "pets": [
      {
        "id": 213,
        "ownerId": 40,
        "name": "Trent",
        "isMissing": true,
        "latitude": 48.20787832205658,
        "longitude": 16.357244478890635
      },
      {
        "id": 214,
        "ownerId": 40,
        "name": "Helen",
        "isMissing": true,
        "latitude": 48.20492020643166,
        "longitude": 16.3582161016162
      },
      {
        "id": 215,
        "ownerId": 40,
        "name": "Rhonda",
        "isMissing": false,
        "latitude": 48.20192580508802,
        "longitude": 16.387687068174312
      },
      {
        "id": 216,
        "ownerId": 40,
        "name": "Rudy",
        "isMissing": false,
        "latitude": 48.22949802953771,
        "longitude": 16.362360079004183
      },
      {
        "id": 217,
        "ownerId": 40,
        "name": "Randi",
        "isMissing": false,
        "latitude": 48.23189436577977,
        "longitude": 16.390018885840703
      }
    ]
  },
  {
    "id": 41,
    "name": "Meaghan",
    "latitude": 48.20048825537905,
    "longitude": 16.387630399390222,
    "pets": [
      {
        "id": 218,
        "ownerId": 41,
        "name": "Lamar",
        "isMissing": false,
        "latitude": 48.23442428319932,
        "longitude": 16.388565732427104
      },
      {
        "id": 219,
        "ownerId": 41,
        "name": "Zachery",
        "isMissing": false,
        "latitude": 48.2388364822755,
        "longitude": 16.391173078889814
      },
      {
        "id": 220,
        "ownerId": 41,
        "name": "Staci",
        "isMissing": true,
        "latitude": 48.23756747606568,
        "longitude": 16.394594405603552
      },
      {
        "id": 221,
        "ownerId": 41,
        "name": "Brady",
        "isMissing": false,
        "latitude": 48.2359417849274,
        "longitude": 16.361942660497196
      },
      {
        "id": 222,
        "ownerId": 41,
        "name": "Chelsey",
        "isMissing": false,
        "latitude": 48.201238042319204,
        "longitude": 16.393749699843937
      },
      {
        "id": 223,
        "ownerId": 41,
        "name": "Nicolas",
        "isMissing": false,
        "latitude": 48.200039193140384,
        "longitude": 16.390043005167044
      },
      {
        "id": 224,
        "ownerId": 41,
        "name": "Carol",
        "isMissing": true,
        "latitude": 48.203633031397246,
        "longitude": 16.386570126513558
      },
      {
        "id": 225,
        "ownerId": 41,
        "name": "Aubrey",
        "isMissing": true,
        "latitude": 48.23592685918263,
        "longitude": 16.363970389311216
      }
    ]
  },
  {
    "id": 42,
    "name": "Lakeisha",
    "latitude": 48.1994955849106,
    "longitude": 16.36143768740906,
    "pets": [
      {
        "id": 226,
        "ownerId": 42,
        "name": "Jena",
        "isMissing": false,
        "latitude": 48.20233421965094,
        "longitude": 16.39478666830566
      },
      {
        "id": 227,
        "ownerId": 42,
        "name": "Sylvia",
        "isMissing": false,
        "latitude": 48.20920053897308,
        "longitude": 16.357648304473475
      },
      {
        "id": 228,
        "ownerId": 42,
        "name": "Israel",
        "isMissing": true,
        "latitude": 48.20586218306488,
        "longitude": 16.36465030583703
      },
      {
        "id": 229,
        "ownerId": 42,
        "name": "Vernon",
        "isMissing": true,
        "latitude": 48.23251355283945,
        "longitude": 16.359743295413715
      },
      {
        "id": 230,
        "ownerId": 42,
        "name": "Elise",
        "isMissing": false,
        "latitude": 48.20362662013816,
        "longitude": 16.362928816640462
      },
      {
        "id": 231,
        "ownerId": 42,
        "name": "Salvador",
        "isMissing": true,
        "latitude": 48.23348505315433,
        "longitude": 16.388736899476957
      }
    ]
  },
  {
    "id": 43,
    "name": "Kelvin",
    "latitude": 48.20235336615285,
    "longitude": 16.39115996567485,
    "pets": [
      {
        "id": 232,
        "ownerId": 43,
        "name": "Brianne",
        "isMissing": true,
        "latitude": 48.23053554742356,
        "longitude": 16.391780219833393
      },
      {
        "id": 233,
        "ownerId": 43,
        "name": "Glenn",
        "isMissing": true,
        "latitude": 48.20189181520745,
        "longitude": 16.39500858597065
      },
      {
        "id": 234,
        "ownerId": 43,
        "name": "Raquel",
        "isMissing": false,
        "latitude": 48.23936710440492,
        "longitude": 16.36432091541541
      },
      {
        "id": 235,
        "ownerId": 43,
        "name": "Clifford",
        "isMissing": true,
        "latitude": 48.232407413705204,
        "longitude": 16.359432903675714
      },
      {
        "id": 236,
        "ownerId": 43,
        "name": "Eduardo",
        "isMissing": true,
        "latitude": 48.20624055609478,
        "longitude": 16.387543264742234
      },
      {
        "id": 237,
        "ownerId": 43,
        "name": "Kristie",
        "isMissing": false,
        "latitude": 48.2081917705644,
        "longitude": 16.36409051473384
      },
      {
        "id": 238,
        "ownerId": 43,
        "name": "Keri",
        "isMissing": false,
        "latitude": 48.19970103487702,
        "longitude": 16.35809759230077
      },
      {
        "id": 239,
        "ownerId": 43,
        "name": "Kathy",
        "isMissing": true,
        "latitude": 48.2009980123768,
        "longitude": 16.356787946202395
      }
    ]
  },
  {
    "id": 44,
    "name": "Jane",
    "latitude": 48.20444906734312,
    "longitude": 16.360389769184817,
    "pets": [
      {
        "id": 240,
        "ownerId": 44,
        "name": "Emanuel",
        "isMissing": true,
        "latitude": 48.20783436054753,
        "longitude": 16.359361450109205
      },
      {
        "id": 241,
        "ownerId": 44,
        "name": "Devon",
        "isMissing": true,
        "latitude": 48.234947601683935,
        "longitude": 16.386012140703247
      },
      {
        "id": 242,
        "ownerId": 44,
        "name": "Roxanne",
        "isMissing": true,
        "latitude": 48.20324863093742,
        "longitude": 16.393342030275996
      },
      {
        "id": 243,
        "ownerId": 44,
        "name": "Dane",
        "isMissing": false,
        "latitude": 48.19952519112639,
        "longitude": 16.358166430127806
      },
      {
        "id": 244,
        "ownerId": 44,
        "name": "Franklin",
        "isMissing": true,
        "latitude": 48.20586866785913,
        "longitude": 16.35824121413215
      },
      {
        "id": 245,
        "ownerId": 44,
        "name": "Eduardo",
        "isMissing": true,
        "latitude": 48.2369540585545,
        "longitude": 16.394069156502127
      },
      {
        "id": 246,
        "ownerId": 44,
        "name": "Tommy",
        "isMissing": false,
        "latitude": 48.20236588170455,
        "longitude": 16.391033613997998
      },
      {
        "id": 247,
        "ownerId": 44,
        "name": "Bonnie",
        "isMissing": true,
        "latitude": 48.22995608368503,
        "longitude": 16.35786086106219
      }
    ]
  },
  {
    "id": 45,
    "name": "Toni",
    "latitude": 48.20839755288754,
    "longitude": 16.391446060126142,
    "pets": [
      {
        "id": 248,
        "ownerId": 45,
        "name": "Dallas",
        "isMissing": false,
        "latitude": 48.23345671198047,
        "longitude": 16.365021490825555
      },
      {
        "id": 249,
        "ownerId": 45,
        "name": "Emanuel",
        "isMissing": true,
        "latitude": 48.20768202471148,
        "longitude": 16.361277272614576
      },
      {
        "id": 250,
        "ownerId": 45,
        "name": "Allyson",
        "isMissing": false,
        "latitude": 48.237600929012686,
        "longitude": 16.35683832978806
      },
      {
        "id": 251,
        "ownerId": 45,
        "name": "Brittani",
        "isMissing": false,
        "latitude": 48.20933817302114,
        "longitude": 16.36178718664119
      }
    ]
  },
  {
    "id": 46,
    "name": "Harold",
    "latitude": 48.199450245920424,
    "longitude": 16.362946825089026,
    "pets": [
      {
        "id": 252,
        "ownerId": 46,
        "name": "Gavin",
        "isMissing": true,
        "latitude": 48.208166004671284,
        "longitude": 16.363268945352758
      },
      {
        "id": 253,
        "ownerId": 46,
        "name": "Elena",
        "isMissing": false,
        "latitude": 48.20783833808286,
        "longitude": 16.391026660770294
      },
      {
        "id": 254,
        "ownerId": 46,
        "name": "Emma",
        "isMissing": false,
        "latitude": 48.20373840673068,
        "longitude": 16.361595259649
      },
      {
        "id": 255,
        "ownerId": 46,
        "name": "Joanne",
        "isMissing": true,
        "latitude": 48.203057687532855,
        "longitude": 16.360587537356977
      },
      {
        "id": 256,
        "ownerId": 46,
        "name": "Sonia",
        "isMissing": true,
        "latitude": 48.23014618790117,
        "longitude": 16.389662739529452
      },
      {
        "id": 257,
        "ownerId": 46,
        "name": "Darryl",
        "isMissing": false,
        "latitude": 48.23162380165639,
        "longitude": 16.355614188662226
      },
      {
        "id": 258,
        "ownerId": 46,
        "name": "Hollie",
        "isMissing": false,
        "latitude": 48.20580259261547,
        "longitude": 16.362602408965433
      }
    ]
  },
  {
    "id": 47,
    "name": "Shelly",
    "latitude": 48.20421367597988,
    "longitude": 16.38829337696717,
    "pets": [
      {
        "id": 259,
        "ownerId": 47,
        "name": "Micah",
        "isMissing": false,
        "latitude": 48.23055660899035,
        "longitude": 16.35813482223546
      },
      {
        "id": 260,
        "ownerId": 47,
        "name": "Graham",
        "isMissing": true,
        "latitude": 48.239354813900825,
        "longitude": 16.392433025386644
      },
      {
        "id": 261,
        "ownerId": 47,
        "name": "Cortney",
        "isMissing": true,
        "latitude": 48.235392548984464,
        "longitude": 16.3648893214792
      },
      {
        "id": 262,
        "ownerId": 47,
        "name": "Rhonda",
        "isMissing": false,
        "latitude": 48.2343666249255,
        "longitude": 16.39065675737754
      }
    ]
  },
  {
    "id": 48,
    "name": "Shawna",
    "latitude": 48.202913013658666,
    "longitude": 16.36461025091822,
    "pets": [
      {
        "id": 263,
        "ownerId": 48,
        "name": "Eli",
        "isMissing": false,
        "latitude": 48.20575007871855,
        "longitude": 16.39045920257794
      },
      {
        "id": 264,
        "ownerId": 48,
        "name": "Lyndsey",
        "isMissing": false,
        "latitude": 48.23040543322348,
        "longitude": 16.356932859397766
      },
      {
        "id": 265,
        "ownerId": 48,
        "name": "Sally",
        "isMissing": true,
        "latitude": 48.2084263814323,
        "longitude": 16.391306292450174
      },
      {
        "id": 266,
        "ownerId": 48,
        "name": "Leigh",
        "isMissing": true,
        "latitude": 48.236435699189954,
        "longitude": 16.36447320872774
      },
      {
        "id": 267,
        "ownerId": 48,
        "name": "Toni",
        "isMissing": true,
        "latitude": 48.20836524624004,
        "longitude": 16.390758863829426
      },
      {
        "id": 268,
        "ownerId": 48,
        "name": "Landon",
        "isMissing": false,
        "latitude": 48.23677708161022,
        "longitude": 16.39438053553423
      },
      {
        "id": 269,
        "ownerId": 48,
        "name": "Paige",
        "isMissing": true,
        "latitude": 48.23303688039157,
        "longitude": 16.359529163619683
      }
    ]
  },
  {
    "id": 49,
    "name": "Tyrone",
    "latitude": 48.20829555096592,
    "longitude": 16.38638228181275,
    "pets": [
      {
        "id": 270,
        "ownerId": 49,
        "name": "Rochelle",
        "isMissing": true,
        "latitude": 48.23198489207714,
        "longitude": 16.395181915442464
      },
      {
        "id": 271,
        "ownerId": 49,
        "name": "Dwayne",
        "isMissing": true,
        "latitude": 48.20548029023941,
        "longitude": 16.36380081491904
      },
      {
        "id": 272,
        "ownerId": 49,
        "name": "Chelsey",
        "isMissing": true,
        "latitude": 48.2051627062917,
        "longitude": 16.357325110806332
      }
    ]
  },
  {
    "id": 50,
    "name": "Briana",
    "latitude": 48.2357812579539,
    "longitude": 16.38681139648281,
    "pets": [
      {
        "id": 273,
        "ownerId": 50,
        "name": "Connie",
        "isMissing": true,
        "latitude": 48.204343358705884,
        "longitude": 16.39436829254891
      },
      {
        "id": 274,
        "ownerId": 50,
        "name": "Randi",
        "isMissing": true,
        "latitude": 48.20907339745811,
        "longitude": 16.360810258235208
      },
      {
        "id": 275,
        "ownerId": 50,
        "name": "Lewis",
        "isMissing": false,
        "latitude": 48.229850435785075,
        "longitude": 16.394001640423472
      },
      {
        "id": 276,
        "ownerId": 50,
        "name": "Katy",
        "isMissing": true,
        "latitude": 48.23852418699288,
        "longitude": 16.387837023125844
      },
      {
        "id": 277,
        "ownerId": 50,
        "name": "Marquita",
        "isMissing": false,
        "latitude": 48.229554815994625,
        "longitude": 16.364984609126843
      },
      {
        "id": 278,
        "ownerId": 50,
        "name": "Eddie",
        "isMissing": false,
        "latitude": 48.20647689731733,
        "longitude": 16.3935471132736
      },
      {
        "id": 279,
        "ownerId": 50,
        "name": "Suzanne",
        "isMissing": true,
        "latitude": 48.20201239138611,
        "longitude": 16.388664319019973
      },
      {
        "id": 280,
        "ownerId": 50,
        "name": "Alma",
        "isMissing": false,
        "latitude": 48.20736257889284,
        "longitude": 16.388676488776312
      }
    ]
  },
  {
    "id": 51,
    "name": "Ronnie",
    "latitude": 48.200733478231655,
    "longitude": 16.385832420891756,
    "pets": [
      {
        "id": 281,
        "ownerId": 51,
        "name": "Robyn",
        "isMissing": false,
        "latitude": 48.23120461195648,
        "longitude": 16.36069395187363
      },
      {
        "id": 282,
        "ownerId": 51,
        "name": "Nadia",
        "isMissing": true,
        "latitude": 48.23205405142979,
        "longitude": 16.356152100748744
      },
      {
        "id": 283,
        "ownerId": 51,
        "name": "Tracey",
        "isMissing": false,
        "latitude": 48.23023006277913,
        "longitude": 16.39389753266036
      },
      {
        "id": 284,
        "ownerId": 51,
        "name": "Kasey",
        "isMissing": false,
        "latitude": 48.23427640908745,
        "longitude": 16.356884357264526
      },
      {
        "id": 285,
        "ownerId": 51,
        "name": "Terence",
        "isMissing": false,
        "latitude": 48.23238142654364,
        "longitude": 16.364045621649776
      },
      {
        "id": 286,
        "ownerId": 51,
        "name": "Perry",
        "isMissing": true,
        "latitude": 48.20318190408259,
        "longitude": 16.355828924684136
      },
      {
        "id": 287,
        "ownerId": 51,
        "name": "Erick",
        "isMissing": false,
        "latitude": 48.20871075430695,
        "longitude": 16.394564023160175
      },
      {
        "id": 288,
        "ownerId": 51,
        "name": "Devon",
        "isMissing": true,
        "latitude": 48.20568215935714,
        "longitude": 16.35826392186334
      }
    ]
  },
  {
    "id": 52,
    "name": "Darryl",
    "latitude": 48.20600607781744,
    "longitude": 16.391699339464253,
    "pets": [
      {
        "id": 289,
        "ownerId": 52,
        "name": "Diane",
        "isMissing": true,
        "latitude": 48.20516821829044,
        "longitude": 16.39076850697684
      },
      {
        "id": 290,
        "ownerId": 52,
        "name": "Shelley",
        "isMissing": true,
        "latitude": 48.20700798380952,
        "longitude": 16.36306185597617
      },
      {
        "id": 291,
        "ownerId": 52,
        "name": "Yvonne",
        "isMissing": true,
        "latitude": 48.229941279190285,
        "longitude": 16.356414843639875
      },
      {
        "id": 292,
        "ownerId": 52,
        "name": "Ronnie",
        "isMissing": false,
        "latitude": 48.2074311649939,
        "longitude": 16.36398719154885
      },
      {
        "id": 293,
        "ownerId": 52,
        "name": "Chris",
        "isMissing": false,
        "latitude": 48.23752247192832,
        "longitude": 16.35681284280545
      },
      {
        "id": 294,
        "ownerId": 52,
        "name": "Martha",
        "isMissing": false,
        "latitude": 48.20930900896092,
        "longitude": 16.357824384644804
      },
      {
        "id": 295,
        "ownerId": 52,
        "name": "Britney",
        "isMissing": false,
        "latitude": 48.23308431344258,
        "longitude": 16.387782750123247
      },
      {
        "id": 296,
        "ownerId": 52,
        "name": "Laurie",
        "isMissing": false,
        "latitude": 48.205153128088774,
        "longitude": 16.358464946622544
      },
      {
        "id": 297,
        "ownerId": 52,
        "name": "Tia",
        "isMissing": false,
        "latitude": 48.203144244236604,
        "longitude": 16.35770944653566
      }
    ]
  },
  {
    "id": 53,
    "name": "Theodore",
    "latitude": 48.233808582067574,
    "longitude": 16.394290559667635,
    "pets": [
      {
        "id": 298,
        "ownerId": 53,
        "name": "Kirsten",
        "isMissing": true,
        "latitude": 48.23639453908468,
        "longitude": 16.3927873966499
      },
      {
        "id": 299,
        "ownerId": 53,
        "name": "Elise",
        "isMissing": false,
        "latitude": 48.231750437316904,
        "longitude": 16.389551964424612
      },
      {
        "id": 300,
        "ownerId": 53,
        "name": "Marshall",
        "isMissing": true,
        "latitude": 48.20629608374224,
        "longitude": 16.38639566443751
      },
      {
        "id": 301,
        "ownerId": 53,
        "name": "Nikki",
        "isMissing": false,
        "latitude": 48.20265671384336,
        "longitude": 16.360443351982212
      },
      {
        "id": 302,
        "ownerId": 53,
        "name": "Norman",
        "isMissing": false,
        "latitude": 48.23780994602425,
        "longitude": 16.360981515722443
      },
      {
        "id": 303,
        "ownerId": 53,
        "name": "Desmond",
        "isMissing": false,
        "latitude": 48.23759407576097,
        "longitude": 16.385287059294654
      },
      {
        "id": 304,
        "ownerId": 53,
        "name": "Kellie",
        "isMissing": true,
        "latitude": 48.20032026663781,
        "longitude": 16.362038561286788
      }
    ]
  },
  {
    "id": 54,
    "name": "Dallas",
    "latitude": 48.207871054337176,
    "longitude": 16.35741317512316,
    "pets": [
      {
        "id": 305,
        "ownerId": 54,
        "name": "Charlene",
        "isMissing": true,
        "latitude": 48.232747697052574,
        "longitude": 16.388598705950724
      },
      {
        "id": 306,
        "ownerId": 54,
        "name": "Leigh",
        "isMissing": true,
        "latitude": 48.23318757272258,
        "longitude": 16.39419110191424
      },
      {
        "id": 307,
        "ownerId": 54,
        "name": "Ciara",
        "isMissing": true,
        "latitude": 48.23773590910423,
        "longitude": 16.386285261598275
      },
      {
        "id": 308,
        "ownerId": 54,
        "name": "Nora",
        "isMissing": true,
        "latitude": 48.20457497849997,
        "longitude": 16.393019250494852
      },
      {
        "id": 309,
        "ownerId": 54,
        "name": "Melody",
        "isMissing": true,
        "latitude": 48.23684125121569,
        "longitude": 16.394479219263335
      },
      {
        "id": 310,
        "ownerId": 54,
        "name": "Francis",
        "isMissing": true,
        "latitude": 48.23249495269173,
        "longitude": 16.35846511777665
      }
    ]
  },
  {
    "id": 55,
    "name": "Clifton",
    "latitude": 48.236294945890755,
    "longitude": 16.392928989234527,
    "pets": [
      {
        "id": 311,
        "ownerId": 55,
        "name": "Connie",
        "isMissing": false,
        "latitude": 48.2019994805949,
        "longitude": 16.387828390157768
      },
      {
        "id": 312,
        "ownerId": 55,
        "name": "Allan",
        "isMissing": false,
        "latitude": 48.23309154746718,
        "longitude": 16.363277188065048
      },
      {
        "id": 313,
        "ownerId": 55,
        "name": "Ronnie",
        "isMissing": false,
        "latitude": 48.19957957268254,
        "longitude": 16.39221617932152
      },
      {
        "id": 314,
        "ownerId": 55,
        "name": "Clarence",
        "isMissing": true,
        "latitude": 48.23298000651189,
        "longitude": 16.363866576085968
      },
      {
        "id": 315,
        "ownerId": 55,
        "name": "Shelby",
        "isMissing": true,
        "latitude": 48.20655626145327,
        "longitude": 16.390863001062996
      },
      {
        "id": 316,
        "ownerId": 55,
        "name": "Meaghan",
        "isMissing": false,
        "latitude": 48.238432250614466,
        "longitude": 16.361830227356172
      },
      {
        "id": 317,
        "ownerId": 55,
        "name": "Eddie",
        "isMissing": false,
        "latitude": 48.23558702202108,
        "longitude": 16.393461861531005
      },
      {
        "id": 318,
        "ownerId": 55,
        "name": "Darryl",
        "isMissing": true,
        "latitude": 48.2001730390919,
        "longitude": 16.364822945024027
      }
    ]
  },
  {
    "id": 56,
    "name": "Alissa",
    "latitude": 48.23402774520262,
    "longitude": 16.360553496681693,
    "pets": [
      {
        "id": 319,
        "ownerId": 56,
        "name": "Lydia",
        "isMissing": false,
        "latitude": 48.23470906156997,
        "longitude": 16.36277596931655
      },
      {
        "id": 320,
        "ownerId": 56,
        "name": "Evelyn",
        "isMissing": false,
        "latitude": 48.20307229866225,
        "longitude": 16.39185051766247
      },
      {
        "id": 321,
        "ownerId": 56,
        "name": "Shelly",
        "isMissing": false,
        "latitude": 48.23014667966793,
        "longitude": 16.360335359155915
      },
      {
        "id": 322,
        "ownerId": 56,
        "name": "Jake",
        "isMissing": false,
        "latitude": 48.20661397894589,
        "longitude": 16.358579326149343
      },
      {
        "id": 323,
        "ownerId": 56,
        "name": "Ernesto",
        "isMissing": true,
        "latitude": 48.23907308780957,
        "longitude": 16.361309044184313
      },
      {
        "id": 324,
        "ownerId": 56,
        "name": "Frances",
        "isMissing": true,
        "latitude": 48.231449345083895,
        "longitude": 16.39368648628445
      },
      {
        "id": 325,
        "ownerId": 56,
        "name": "Ernest",
        "isMissing": true,
        "latitude": 48.23253990282966,
        "longitude": 16.362114727576667
      },
      {
        "id": 326,
        "ownerId": 56,
        "name": "Brenton",
        "isMissing": false,
        "latitude": 48.20086951164506,
        "longitude": 16.385911971597164
      },
      {
        "id": 327,
        "ownerId": 56,
        "name": "Destiny",
        "isMissing": true,
        "latitude": 48.20007744421541,
        "longitude": 16.358720833990485
      }
    ]
  },
  {
    "id": 57,
    "name": "Keri",
    "latitude": 48.23801568429135,
    "longitude": 16.388532698920052,
    "pets": [
      {
        "id": 328,
        "ownerId": 57,
        "name": "Tabatha",
        "isMissing": false,
        "latitude": 48.20456113035696,
        "longitude": 16.359072684894958
      },
      {
        "id": 329,
        "ownerId": 57,
        "name": "Jeanette",
        "isMissing": false,
        "latitude": 48.231233607363755,
        "longitude": 16.35822105825213
      },
      {
        "id": 330,
        "ownerId": 57,
        "name": "Paula",
        "isMissing": true,
        "latitude": 48.20341280336064,
        "longitude": 16.389960169258117
      },
      {
        "id": 331,
        "ownerId": 57,
        "name": "Lynn",
        "isMissing": false,
        "latitude": 48.20452208379958,
        "longitude": 16.39112696654864
      },
      {
        "id": 332,
        "ownerId": 57,
        "name": "Elisa",
        "isMissing": true,
        "latitude": 48.20595487648205,
        "longitude": 16.391385707756275
      },
      {
        "id": 333,
        "ownerId": 57,
        "name": "Duane",
        "isMissing": false,
        "latitude": 48.23769520739248,
        "longitude": 16.39515325843839
      }
    ]
  },
  {
    "id": 58,
    "name": "Chance",
    "latitude": 48.23785619274853,
    "longitude": 16.35885340784917,
    "pets": [
      {
        "id": 334,
        "ownerId": 58,
        "name": "Claire",
        "isMissing": true,
        "latitude": 48.206154948808894,
        "longitude": 16.363573664079127
      },
      {
        "id": 335,
        "ownerId": 58,
        "name": "Chance",
        "isMissing": false,
        "latitude": 48.20128150972963,
        "longitude": 16.35922299100775
      },
      {
        "id": 336,
        "ownerId": 58,
        "name": "Brady",
        "isMissing": true,
        "latitude": 48.20321483002465,
        "longitude": 16.363282223548026
      },
      {
        "id": 337,
        "ownerId": 58,
        "name": "Cheryl",
        "isMissing": true,
        "latitude": 48.19994291801089,
        "longitude": 16.361005394589938
      },
      {
        "id": 338,
        "ownerId": 58,
        "name": "Sherry",
        "isMissing": true,
        "latitude": 48.20587605691273,
        "longitude": 16.39306563284562
      },
      {
        "id": 339,
        "ownerId": 58,
        "name": "Diane",
        "isMissing": true,
        "latitude": 48.20492837879683,
        "longitude": 16.390699927416552
      },
      {
        "id": 340,
        "ownerId": 58,
        "name": "Clarissa",
        "isMissing": true,
        "latitude": 48.23555056949317,
        "longitude": 16.39191594595302
      },
      {
        "id": 341,
        "ownerId": 58,
        "name": "Ethan",
        "isMissing": false,
        "latitude": 48.23038665478496,
        "longitude": 16.391145271189757
      }
    ]
  },
  {
    "id": 59,
    "name": "Lewis",
    "latitude": 48.23355987529782,
    "longitude": 16.39361110511867,
    "pets": [
      {
        "id": 342,
        "ownerId": 59,
        "name": "Collin",
        "isMissing": false,
        "latitude": 48.203350014804336,
        "longitude": 16.356421613503972
      },
      {
        "id": 343,
        "ownerId": 59,
        "name": "Yesenia",
        "isMissing": false,
        "latitude": 48.23782965218514,
        "longitude": 16.394712453459167
      },
      {
        "id": 344,
        "ownerId": 59,
        "name": "Emanuel",
        "isMissing": false,
        "latitude": 48.23245859782364,
        "longitude": 16.359699200719408
      },
      {
        "id": 345,
        "ownerId": 59,
        "name": "Ellen",
        "isMissing": true,
        "latitude": 48.23784062480159,
        "longitude": 16.39245090023504
      },
      {
        "id": 346,
        "ownerId": 59,
        "name": "Helen",
        "isMissing": true,
        "latitude": 48.201608353183765,
        "longitude": 16.356462277489335
      }
    ]
  },
  {
    "id": 60,
    "name": "Graham",
    "latitude": 48.20701581197004,
    "longitude": 16.36174266397357,
    "pets": [
      {
        "id": 347,
        "ownerId": 60,
        "name": "Elijah",
        "isMissing": false,
        "latitude": 48.2312232451052,
        "longitude": 16.388471286464114
      },
      {
        "id": 348,
        "ownerId": 60,
        "name": "Quinton",
        "isMissing": false,
        "latitude": 48.23552389624161,
        "longitude": 16.362373168128556
      },
      {
        "id": 349,
        "ownerId": 60,
        "name": "Shelley",
        "isMissing": true,
        "latitude": 48.235866829191636,
        "longitude": 16.38731967777798
      },
      {
        "id": 350,
        "ownerId": 60,
        "name": "Lillian",
        "isMissing": false,
        "latitude": 48.20368917756834,
        "longitude": 16.391872953376797
      },
      {
        "id": 351,
        "ownerId": 60,
        "name": "Alma",
        "isMissing": true,
        "latitude": 48.23012383761046,
        "longitude": 16.39455148400267
      }
    ]
  },
  {
    "id": 61,
    "name": "Martha",
    "latitude": 48.20394506297135,
    "longitude": 16.361693331220497,
    "pets": [
      {
        "id": 352,
        "ownerId": 61,
        "name": "Tracey",
        "isMissing": true,
        "latitude": 48.23210292715157,
        "longitude": 16.386661573155802
      },
      {
        "id": 353,
        "ownerId": 61,
        "name": "Brittani",
        "isMissing": true,
        "latitude": 48.235588918241966,
        "longitude": 16.388654545312853
      },
      {
        "id": 354,
        "ownerId": 61,
        "name": "Cecilia",
        "isMissing": true,
        "latitude": 48.20878354269456,
        "longitude": 16.388860235892466
      },
      {
        "id": 355,
        "ownerId": 61,
        "name": "Duane",
        "isMissing": true,
        "latitude": 48.19955746715153,
        "longitude": 16.394589586622573
      },
      {
        "id": 356,
        "ownerId": 61,
        "name": "Traci",
        "isMissing": true,
        "latitude": 48.229980807336034,
        "longitude": 16.35651042268785
      },
      {
        "id": 357,
        "ownerId": 61,
        "name": "Hillary",
        "isMissing": true,
        "latitude": 48.207036498840495,
        "longitude": 16.357054031967525
      },
      {
        "id": 358,
        "ownerId": 61,
        "name": "Alma",
        "isMissing": false,
        "latitude": 48.199833085217925,
        "longitude": 16.394325055355996
      }
    ]
  },
  {
    "id": 62,
    "name": "Kasey",
    "latitude": 48.23674454027633,
    "longitude": 16.390307275345602,
    "pets": [
      {
        "id": 359,
        "ownerId": 62,
        "name": "Shawna",
        "isMissing": true,
        "latitude": 48.200977776871916,
        "longitude": 16.390188504378166
      },
      {
        "id": 360,
        "ownerId": 62,
        "name": "Jasmin",
        "isMissing": false,
        "latitude": 48.23708480913084,
        "longitude": 16.388429016326537
      },
      {
        "id": 361,
        "ownerId": 62,
        "name": "Carol",
        "isMissing": false,
        "latitude": 48.20299552827099,
        "longitude": 16.389349580281934
      },
      {
        "id": 362,
        "ownerId": 62,
        "name": "Summer",
        "isMissing": false,
        "latitude": 48.20211054732459,
        "longitude": 16.355785527727846
      },
      {
        "id": 363,
        "ownerId": 62,
        "name": "Levi",
        "isMissing": true,
        "latitude": 48.20225148196041,
        "longitude": 16.386754316920676
      }
    ]
  },
  {
    "id": 63,
    "name": "Clifton",
    "latitude": 48.23795581272244,
    "longitude": 16.392821900447988,
    "pets": [
      {
        "id": 364,
        "ownerId": 63,
        "name": "Eugene",
        "isMissing": true,
        "latitude": 48.205053145872334,
        "longitude": 16.356286182200254
      },
      {
        "id": 365,
        "ownerId": 63,
        "name": "Tracey",
        "isMissing": true,
        "latitude": 48.20592587925487,
        "longitude": 16.393521485864557
      },
      {
        "id": 366,
        "ownerId": 63,
        "name": "Lillian",
        "isMissing": true,
        "latitude": 48.19956955667367,
        "longitude": 16.35739536360258
      },
      {
        "id": 367,
        "ownerId": 63,
        "name": "Jamal",
        "isMissing": true,
        "latitude": 48.205202067412294,
        "longitude": 16.387763412840687
      },
      {
        "id": 368,
        "ownerId": 63,
        "name": "Marisol",
        "isMissing": false,
        "latitude": 48.238176434834,
        "longitude": 16.386157268248827
      },
      {
        "id": 369,
        "ownerId": 63,
        "name": "Helen",
        "isMissing": false,
        "latitude": 48.2377723339267,
        "longitude": 16.36247135724672
      },
      {
        "id": 370,
        "ownerId": 63,
        "name": "Wade",
        "isMissing": true,
        "latitude": 48.23827498610939,
        "longitude": 16.385728217187587
      }
    ]
  },
  {
    "id": 64,
    "name": "Tessa",
    "latitude": 48.20700837594471,
    "longitude": 16.392818945420412,
    "pets": [
      {
        "id": 371,
        "ownerId": 64,
        "name": "Hollie",
        "isMissing": true,
        "latitude": 48.205298130770295,
        "longitude": 16.361392812762034
      },
      {
        "id": 372,
        "ownerId": 64,
        "name": "Jayson",
        "isMissing": false,
        "latitude": 48.23644992939659,
        "longitude": 16.3553576604681
      },
      {
        "id": 373,
        "ownerId": 64,
        "name": "Raquel",
        "isMissing": true,
        "latitude": 48.23386903392851,
        "longitude": 16.394173387848433
      },
      {
        "id": 374,
        "ownerId": 64,
        "name": "Jana",
        "isMissing": true,
        "latitude": 48.23741730636145,
        "longitude": 16.357057033295582
      },
      {
        "id": 375,
        "ownerId": 64,
        "name": "Ernesto",
        "isMissing": true,
        "latitude": 48.23548535011931,
        "longitude": 16.35924132014705
      },
      {
        "id": 376,
        "ownerId": 64,
        "name": "Janice",
        "isMissing": true,
        "latitude": 48.20618811774713,
        "longitude": 16.365106542165154
      },
      {
        "id": 377,
        "ownerId": 64,
        "name": "Nora",
        "isMissing": false,
        "latitude": 48.208805671804754,
        "longitude": 16.38765075907882
      },
      {
        "id": 378,
        "ownerId": 64,
        "name": "Lena",
        "isMissing": false,
        "latitude": 48.20424408277328,
        "longitude": 16.39066723680619
      },
      {
        "id": 379,
        "ownerId": 64,
        "name": "Laurel",
        "isMissing": true,
        "latitude": 48.207524856664016,
        "longitude": 16.36280640982412
      }
    ]
  },
  {
    "id": 65,
    "name": "Latisha",
    "latitude": 48.20532773300928,
    "longitude": 16.39208240454247,
    "pets": [
      {
        "id": 380,
        "ownerId": 65,
        "name": "Shanna",
        "isMissing": false,
        "latitude": 48.23209358982598,
        "longitude": 16.388737331642396
      },
      {
        "id": 381,
        "ownerId": 65,
        "name": "Kurt",
        "isMissing": false,
        "latitude": 48.201233246821275,
        "longitude": 16.36169415774641
      },
      {
        "id": 382,
        "ownerId": 65,
        "name": "Karla",
        "isMissing": false,
        "latitude": 48.20297614165519,
        "longitude": 16.359255127872597
      },
      {
        "id": 383,
        "ownerId": 65,
        "name": "Britney",
        "isMissing": false,
        "latitude": 48.2056412769133,
        "longitude": 16.39433775001023
      },
      {
        "id": 384,
        "ownerId": 65,
        "name": "Suzanne",
        "isMissing": true,
        "latitude": 48.207872241268305,
        "longitude": 16.36219277736438
      }
    ]
  },
  {
    "id": 66,
    "name": "Rochelle",
    "latitude": 48.2091024126875,
    "longitude": 16.386262006899795,
    "pets": [
      {
        "id": 385,
        "ownerId": 66,
        "name": "Andy",
        "isMissing": true,
        "latitude": 48.20278800253141,
        "longitude": 16.362931288943557
      },
      {
        "id": 386,
        "ownerId": 66,
        "name": "Barry",
        "isMissing": false,
        "latitude": 48.22944057252453,
        "longitude": 16.356160098787853
      },
      {
        "id": 387,
        "ownerId": 66,
        "name": "Sonya",
        "isMissing": false,
        "latitude": 48.208875362711176,
        "longitude": 16.363767254935034
      },
      {
        "id": 388,
        "ownerId": 66,
        "name": "Nadia",
        "isMissing": true,
        "latitude": 48.233691128296876,
        "longitude": 16.361523724451
      },
      {
        "id": 389,
        "ownerId": 66,
        "name": "Heath",
        "isMissing": false,
        "latitude": 48.23030285073435,
        "longitude": 16.361381782349138
      },
      {
        "id": 390,
        "ownerId": 66,
        "name": "Toni",
        "isMissing": true,
        "latitude": 48.23612728975312,
        "longitude": 16.387372224086683
      },
      {
        "id": 391,
        "ownerId": 66,
        "name": "Jake",
        "isMissing": false,
        "latitude": 48.20100146733961,
        "longitude": 16.36353180576616
      },
      {
        "id": 392,
        "ownerId": 66,
        "name": "Joyce",
        "isMissing": false,
        "latitude": 48.205249568752684,
        "longitude": 16.363239936091347
      }
    ]
  },
  {
    "id": 67,
    "name": "Breanna",
    "latitude": 48.20535149292114,
    "longitude": 16.38616909414758,
    "pets": [
      {
        "id": 393,
        "ownerId": 67,
        "name": "Kirk",
        "isMissing": false,
        "latitude": 48.200009378053,
        "longitude": 16.363544273236354
      },
      {
        "id": 394,
        "ownerId": 67,
        "name": "Kristie",
        "isMissing": false,
        "latitude": 48.23420124544587,
        "longitude": 16.393597813407833
      },
      {
        "id": 395,
        "ownerId": 67,
        "name": "Yolanda",
        "isMissing": true,
        "latitude": 48.20839484893016,
        "longitude": 16.362339679502423
      },
      {
        "id": 396,
        "ownerId": 67,
        "name": "Ernest",
        "isMissing": true,
        "latitude": 48.200692865289085,
        "longitude": 16.38810691168584
      },
      {
        "id": 397,
        "ownerId": 67,
        "name": "Charity",
        "isMissing": true,
        "latitude": 48.19977878513439,
        "longitude": 16.358133535597318
      }
    ]
  },
  {
    "id": 68,
    "name": "Logan",
    "latitude": 48.20709348971069,
    "longitude": 16.361079805306908,
    "pets": [
      {
        "id": 398,
        "ownerId": 68,
        "name": "Cheryl",
        "isMissing": false,
        "latitude": 48.2378792161742,
        "longitude": 16.386001999290787
      },
      {
        "id": 399,
        "ownerId": 68,
        "name": "Angelo",
        "isMissing": false,
        "latitude": 48.231011484892335,
        "longitude": 16.38547830437651
      },
      {
        "id": 400,
        "ownerId": 68,
        "name": "Roderick",
        "isMissing": false,
        "latitude": 48.20031248721914,
        "longitude": 16.35943111868728
      },
      {
        "id": 401,
        "ownerId": 68,
        "name": "Edgar",
        "isMissing": true,
        "latitude": 48.22957741518159,
        "longitude": 16.356381775592386
      },
      {
        "id": 402,
        "ownerId": 68,
        "name": "Amie",
        "isMissing": true,
        "latitude": 48.2362453549271,
        "longitude": 16.38961655155725
      },
      {
        "id": 403,
        "ownerId": 68,
        "name": "Jake",
        "isMissing": true,
        "latitude": 48.23569416262774,
        "longitude": 16.36203938917453
      },
      {
        "id": 404,
        "ownerId": 68,
        "name": "Dwayne",
        "isMissing": false,
        "latitude": 48.23931594512534,
        "longitude": 16.38560089788402
      }
    ]
  },
  {
    "id": 69,
    "name": "Guadalupe",
    "latitude": 48.236387393472505,
    "longitude": 16.391904569750864,
    "pets": [
      {
        "id": 405,
        "ownerId": 69,
        "name": "Ray",
        "isMissing": true,
        "latitude": 48.206353407637785,
        "longitude": 16.364256593534797
      },
      {
        "id": 406,
        "ownerId": 69,
        "name": "Marvin",
        "isMissing": true,
        "latitude": 48.23127574185998,
        "longitude": 16.364404566434878
      },
      {
        "id": 407,
        "ownerId": 69,
        "name": "Kaitlyn",
        "isMissing": false,
        "latitude": 48.234477952012476,
        "longitude": 16.359320820768236
      },
      {
        "id": 408,
        "ownerId": 69,
        "name": "Bonnie",
        "isMissing": false,
        "latitude": 48.19959852707043,
        "longitude": 16.38767928423215
      },
      {
        "id": 409,
        "ownerId": 69,
        "name": "Rochelle",
        "isMissing": true,
        "latitude": 48.23308464062045,
        "longitude": 16.362154536571232
      }
    ]
  },
  {
    "id": 70,
    "name": "Cheryl",
    "latitude": 48.23355266821242,
    "longitude": 16.363337081126527,
    "pets": [
      {
        "id": 410,
        "ownerId": 70,
        "name": "Enrique",
        "isMissing": true,
        "latitude": 48.20430170516189,
        "longitude": 16.387756151483437
      },
      {
        "id": 411,
        "ownerId": 70,
        "name": "Tammy",
        "isMissing": false,
        "latitude": 48.1998056458473,
        "longitude": 16.363608638687513
      },
      {
        "id": 412,
        "ownerId": 70,
        "name": "Jocelyn",
        "isMissing": false,
        "latitude": 48.20395059516961,
        "longitude": 16.36216141013711
      },
      {
        "id": 413,
        "ownerId": 70,
        "name": "Taryn",
        "isMissing": true,
        "latitude": 48.23006405298553,
        "longitude": 16.35948569577136
      }
    ]
  },
  {
    "id": 71,
    "name": "Graham",
    "latitude": 48.206280292049215,
    "longitude": 16.388904662922567,
    "pets": [
      {
        "id": 414,
        "ownerId": 71,
        "name": "Lena",
        "isMissing": false,
        "latitude": 48.201561763034576,
        "longitude": 16.363126053186416
      },
      {
        "id": 415,
        "ownerId": 71,
        "name": "Ernesto",
        "isMissing": true,
        "latitude": 48.20911010827832,
        "longitude": 16.364877218276114
      },
      {
        "id": 416,
        "ownerId": 71,
        "name": "Yesenia",
        "isMissing": false,
        "latitude": 48.20388514056241,
        "longitude": 16.39427486615757
      },
      {
        "id": 417,
        "ownerId": 71,
        "name": "Janice",
        "isMissing": true,
        "latitude": 48.20222232626264,
        "longitude": 16.35888489912282
      }
    ]
  },
  {
    "id": 72,
    "name": "Debra",
    "latitude": 48.201773136831996,
    "longitude": 16.364775183150645,
    "pets": [
      {
        "id": 418,
        "ownerId": 72,
        "name": "Lyndsey",
        "isMissing": false,
        "latitude": 48.23657184117253,
        "longitude": 16.3589726706907
      },
      {
        "id": 419,
        "ownerId": 72,
        "name": "Callie",
        "isMissing": true,
        "latitude": 48.23277578726671,
        "longitude": 16.361122631523937
      },
      {
        "id": 420,
        "ownerId": 72,
        "name": "Maggie",
        "isMissing": true,
        "latitude": 48.205355929089,
        "longitude": 16.360648259063506
      }
    ]
  },
  {
    "id": 73,
    "name": "Aubrey",
    "latitude": 48.23448241998834,
    "longitude": 16.360761609099427,
    "pets": [
      {
        "id": 421,
        "ownerId": 73,
        "name": "Leanne",
        "isMissing": false,
        "latitude": 48.20174335660255,
        "longitude": 16.386863819427155
      },
      {
        "id": 422,
        "ownerId": 73,
        "name": "Melvin",
        "isMissing": true,
        "latitude": 48.20708056562951,
        "longitude": 16.38809112729665
      },
      {
        "id": 423,
        "ownerId": 73,
        "name": "Ronnie",
        "isMissing": true,
        "latitude": 48.2374542532269,
        "longitude": 16.357797685709794
      },
      {
        "id": 424,
        "ownerId": 73,
        "name": "Andy",
        "isMissing": true,
        "latitude": 48.20785386356043,
        "longitude": 16.35688071920416
      },
      {
        "id": 425,
        "ownerId": 73,
        "name": "Ramon",
        "isMissing": false,
        "latitude": 48.2091641763293,
        "longitude": 16.38739314625177
      },
      {
        "id": 426,
        "ownerId": 73,
        "name": "India",
        "isMissing": true,
        "latitude": 48.2038759271821,
        "longitude": 16.357066445376955
      }
    ]
  },
  {
    "id": 74,
    "name": "Marquita",
    "latitude": 48.23573573295461,
    "longitude": 16.38979024909533,
    "pets": [
      {
        "id": 427,
        "ownerId": 74,
        "name": "Breanna",
        "isMissing": false,
        "latitude": 48.20686120539436,
        "longitude": 16.391180309540236
      },
      {
        "id": 428,
        "ownerId": 74,
        "name": "Maggie",
        "isMissing": true,
        "latitude": 48.23604658208084,
        "longitude": 16.39155044038968
      },
      {
        "id": 429,
        "ownerId": 74,
        "name": "Connie",
        "isMissing": false,
        "latitude": 48.23224573374195,
        "longitude": 16.36016848619706
      },
      {
        "id": 430,
        "ownerId": 74,
        "name": "Terrance",
        "isMissing": true,
        "latitude": 48.20135564367553,
        "longitude": 16.357901549777097
      },
      {
        "id": 431,
        "ownerId": 74,
        "name": "Bryce",
        "isMissing": true,
        "latitude": 48.23448556076243,
        "longitude": 16.386504278449994
      },
      {
        "id": 432,
        "ownerId": 74,
        "name": "Claire",
        "isMissing": true,
        "latitude": 48.20245709903001,
        "longitude": 16.386302704922848
      },
      {
        "id": 433,
        "ownerId": 74,
        "name": "Brandie",
        "isMissing": false,
        "latitude": 48.20693842225777,
        "longitude": 16.39132146939851
      },
      {
        "id": 434,
        "ownerId": 74,
        "name": "Ciara",
        "isMissing": true,
        "latitude": 48.236729410450636,
        "longitude": 16.387113152347773
      }
    ]
  },
  {
    "id": 75,
    "name": "Evelyn",
    "latitude": 48.23677657444517,
    "longitude": 16.39393831684473,
    "pets": [
      {
        "id": 435,
        "ownerId": 75,
        "name": "Joanne",
        "isMissing": true,
        "latitude": 48.23778793682123,
        "longitude": 16.364973194326183
      },
      {
        "id": 436,
        "ownerId": 75,
        "name": "Suzanne",
        "isMissing": true,
        "latitude": 48.201881167456264,
        "longitude": 16.359742445906463
      },
      {
        "id": 437,
        "ownerId": 75,
        "name": "Clint",
        "isMissing": true,
        "latitude": 48.23696307354123,
        "longitude": 16.356138995002805
      },
      {
        "id": 438,
        "ownerId": 75,
        "name": "Jami",
        "isMissing": false,
        "latitude": 48.23622032160018,
        "longitude": 16.359916818250834
      },
      {
        "id": 439,
        "ownerId": 75,
        "name": "Cortney",
        "isMissing": true,
        "latitude": 48.20853258518518,
        "longitude": 16.38586407834419
      },
      {
        "id": 440,
        "ownerId": 75,
        "name": "Esther",
        "isMissing": false,
        "latitude": 48.23041478704654,
        "longitude": 16.357928701371687
      },
      {
        "id": 441,
        "ownerId": 75,
        "name": "Paige",
        "isMissing": true,
        "latitude": 48.23218952633856,
        "longitude": 16.364341231159198
      }
    ]
  },
  {
    "id": 76,
    "name": "Rachelle",
    "latitude": 48.20297959261466,
    "longitude": 16.35945281099985,
    "pets": [
      {
        "id": 442,
        "ownerId": 76,
        "name": "Yesenia",
        "isMissing": true,
        "latitude": 48.2019612403699,
        "longitude": 16.364529923816438
      },
      {
        "id": 443,
        "ownerId": 76,
        "name": "Stuart",
        "isMissing": true,
        "latitude": 48.203717650497474,
        "longitude": 16.387763977576583
      },
      {
        "id": 444,
        "ownerId": 76,
        "name": "Kristie",
        "isMissing": true,
        "latitude": 48.239129538787346,
        "longitude": 16.35983624569067
      },
      {
        "id": 445,
        "ownerId": 76,
        "name": "Ivan",
        "isMissing": false,
        "latitude": 48.233288627253884,
        "longitude": 16.391666601084527
      },
      {
        "id": 446,
        "ownerId": 76,
        "name": "Marvin",
        "isMissing": false,
        "latitude": 48.230801225488875,
        "longitude": 16.392322409757227
      },
      {
        "id": 447,
        "ownerId": 76,
        "name": "Christa",
        "isMissing": false,
        "latitude": 48.205518827424214,
        "longitude": 16.385406877449014
      },
      {
        "id": 448,
        "ownerId": 76,
        "name": "Kent",
        "isMissing": true,
        "latitude": 48.202935142708796,
        "longitude": 16.39179797023329
      },
      {
        "id": 449,
        "ownerId": 76,
        "name": "Zachery",
        "isMissing": false,
        "latitude": 48.23688819074059,
        "longitude": 16.387881621899165
      }
    ]
  },
  {
    "id": 77,
    "name": "Rita",
    "latitude": 48.23196970254525,
    "longitude": 16.38938498074139,
    "pets": [
      {
        "id": 450,
        "ownerId": 77,
        "name": "Robyn",
        "isMissing": true,
        "latitude": 48.230119834272436,
        "longitude": 16.392411918739167
      },
      {
        "id": 451,
        "ownerId": 77,
        "name": "Kent",
        "isMissing": true,
        "latitude": 48.202350455419044,
        "longitude": 16.394348717291745
      },
      {
        "id": 452,
        "ownerId": 77,
        "name": "Irene",
        "isMissing": false,
        "latitude": 48.2012968128055,
        "longitude": 16.356544587710616
      },
      {
        "id": 453,
        "ownerId": 77,
        "name": "Demetrius",
        "isMissing": true,
        "latitude": 48.209390233607365,
        "longitude": 16.394236875204214
      },
      {
        "id": 454,
        "ownerId": 77,
        "name": "Rachelle",
        "isMissing": false,
        "latitude": 48.202216415437995,
        "longitude": 16.38764124381711
      },
      {
        "id": 455,
        "ownerId": 77,
        "name": "Carol",
        "isMissing": false,
        "latitude": 48.20327184288616,
        "longitude": 16.388783362359945
      },
      {
        "id": 456,
        "ownerId": 77,
        "name": "Lakeisha",
        "isMissing": false,
        "latitude": 48.23534460833468,
        "longitude": 16.357902287599217
      }
    ]
  },
  {
    "id": 78,
    "name": "Jayson",
    "latitude": 48.23048257470615,
    "longitude": 16.36319050690313,
    "pets": [
      {
        "id": 457,
        "ownerId": 78,
        "name": "Melvin",
        "isMissing": true,
        "latitude": 48.2377333804145,
        "longitude": 16.394743422981705
      },
      {
        "id": 458,
        "ownerId": 78,
        "name": "Noah",
        "isMissing": false,
        "latitude": 48.199524790061695,
        "longitude": 16.35875944412107
      },
      {
        "id": 459,
        "ownerId": 78,
        "name": "Norman",
        "isMissing": false,
        "latitude": 48.20428228423863,
        "longitude": 16.361457128287217
      },
      {
        "id": 460,
        "ownerId": 78,
        "name": "Neil",
        "isMissing": false,
        "latitude": 48.22950538384826,
        "longitude": 16.388701388337918
      },
      {
        "id": 461,
        "ownerId": 78,
        "name": "Alfredo",
        "isMissing": false,
        "latitude": 48.20012408161607,
        "longitude": 16.388978709095316
      },
      {
        "id": 462,
        "ownerId": 78,
        "name": "Melvin",
        "isMissing": false,
        "latitude": 48.236735813347494,
        "longitude": 16.364220628876733
      },
      {
        "id": 463,
        "ownerId": 78,
        "name": "Gerardo",
        "isMissing": true,
        "latitude": 48.201319942287995,
        "longitude": 16.361452196520393
      },
      {
        "id": 464,
        "ownerId": 78,
        "name": "Bryce",
        "isMissing": false,
        "latitude": 48.20439606905544,
        "longitude": 16.355797895343294
      }
    ]
  },
  {
    "id": 79,
    "name": "Raul",
    "latitude": 48.20530007853665,
    "longitude": 16.386691052211873,
    "pets": [
      {
        "id": 465,
        "ownerId": 79,
        "name": "Mindy",
        "isMissing": true,
        "latitude": 48.23656748243879,
        "longitude": 16.36269511425432
      },
      {
        "id": 466,
        "ownerId": 79,
        "name": "Nina",
        "isMissing": false,
        "latitude": 48.204029512650244,
        "longitude": 16.361946049478554
      },
      {
        "id": 467,
        "ownerId": 79,
        "name": "Debra",
        "isMissing": true,
        "latitude": 48.23717761115188,
        "longitude": 16.360390959096613
      }
    ]
  },